[{"Name": "National Public Health Laboratory", "lat": "27.695593", "long": "85.3067614", "totaltests": "80426", "percent": "25.49%"}, {"Name": "B.P. Koirala Institute of Health Sciences", "lat": "26.80956", "long": "87.26759", "totaltests": "12268", "percent": "3.89%"}, {"Name": "Koshi Hospital", "lat": "26.4590497", "long": "87.2851884", "totaltests": "14773", "percent": "4.68%"}, {"Name": "State Public Health Laboratory", "lat": "26.4678475", "long": "87.2766315", "totaltests": "12148", "extra": true, "percent": "3.85%"}, {"Name": "Gajendra Narayan Singh Hospital", "lat": "26.5359504", "long": "86.7499481", "totaltests": "2727", "percent": "0.86%"}, {"Name": "Janakpur Zonal Hospital", "lat": "26.7298786", "long": "85.9115304", "totaltests": "5119", "extra": true, "percent": "1.62%"}, {"Name": "Narayani Hospital", "lat": "27.005742", "long": "84.8735593", "totaltests": "10140", "percent": "3.21%"}, {"Name": "Shukraraj Tropical and Infectious Disease Hospital", "lat": "27.6954445", "long": "85.3069413", "totaltests": "10641", "percent": "3.37%"}, {"Name": "Bharatpur Hospital COVID-19 Diagnostic Laboratory", "lat": "27.6818787", "long": "84.434377", "totaltests": "10084", "percent": "3.20%"}, {"Name": "Vector Borne Disease Research and Training Centre", "lat": "27.4266827", "long": "85.0241767", "totaltests": "11249", "percent": "3.56%"}, {"Name": "Kathmandu University Teaching Hospital", "lat": "27.6167702", "long": "85.5479505", "totaltests": "8496", "percent": "2.69%"}, {"Name": "Patan Hospital", "lat": "27.668302", "long": "85.3205683", "totaltests": "7090", "percent": "2.25%"}, {"Name": "Bir Hospital", "lat": "27.7048249", "long": "85.3136514", "totaltests": "6342", "percent": "2.01%"}, {"Name": "Tribhuvan University Teaching Hospital", "lat": "27.7359917", "long": "85.3302595", "totaltests": "6503", "percent": "2.06%"}, {"Name": "Nepal Police Hospital Laboratory", "lat": "27.7311856", "long": "85.3233487", "totaltests": "146", "percent": "0.05%"}, {"Name": "Pokhara Academy of Health Science", "lat": "28.2125539", "long": "83.9979662", "totaltests": "12062", "percent": "3.82%"}, {"Name": "Provincial Public Health Laboratory- Pokhara", "lat": "28.2123973", "long": "84.0004241", "totaltests": "7753", "percent": "2.46%"}, {"Name": "National Path Lab- Rupandehi ", "lat": "27.6977615", "long": "83.4637517", "totaltests": "11160", "percent": "3.54%"}, {"Name": "Bheri Hospital", "lat": "28.052908", "long": "81.6176275", "totaltests": "17200", "percent": "5.45%"}, {"Name": "Lumbini Provincial Hospital", "lat": "27.6971129", "long": "83.4633134", "totaltests": "542", "percent": "0.17%"}, {"Name": "Rapti Academy of Health Sciences", "lat": "28.0587625", "long": "82.4861053", "totaltests": "15003", "percent": "4.75%"}, {"Name": "Surkhet Hospital", "lat": "28.5960832", "long": "81.6030746", "totaltests": "17330", "percent": "5.49%"}, {"Name": "Karnali Academy of Health Sciences", "lat": "29.2829257", "long": "82.1830896", "totaltests": "18364", "percent": "5.82%"}, {"Name": "COVID-19 Testing Laboratory- Dailekh", "lat": "28.899069", "long": "81.3767203", "totaltests": "1347", "extra": true, "percent": "0.43%"}, {"Name": "Chaurjahari Municipality PCR Laboratory", "lat": "28.6368786", "long": "82.1878144", "totaltests": "789", "extra": true, "percent": "0.25%"}, {"Name": "Dadeldhura Hospital Laboratory", "lat": "29.3048913", "long": "80.5875312", "totaltests": "1076", "percent": "0.34%"}, {"Name": "Seti Zonal Hospital", "lat": "28.710972", "long": "80.57763", "totaltests": "14792", "percent": "4.69%"}]