[{"Name": "National Public Health Laboratory", "percent": "24.91%", "long": "85.3067614", "totaltests": "81611", "Location": "Teku", "lat": "27.695593"}, {"Name": "B.P. Koirala Institute of Health Sciences", "percent": "3.95%", "long": "87.26759", "totaltests": "12945", "Location": "Dharan", "lat": "26.80956"}, {"Name": "Koshi Hospital", "percent": "4.65%", "long": "87.2851884", "totaltests": "15237", "Location": "Biratnagar", "lat": "26.4590497"}, {"Name": "State Public Health Laboratory", "extra": true, "percent": "4.01%", "long": "87.2766315", "totaltests": "13121", "Location": "Biratnagar", "lat": "26.4678475"}, {"Name": "Gajendra Narayan Singh Hospital", "percent": "0.91%", "long": "86.7499481", "totaltests": "2997", "Location": "Saptari", "lat": "26.5359504"}, {"Name": "Janakpur Zonal Hospital", "extra": true, "percent": "1.64%", "long": "85.9115304", "totaltests": "5361", "Location": "Janakpur", "lat": "26.7298786"}, {"Name": "Narayani Hospital", "percent": "3.20%", "long": "84.8735593", "totaltests": "10499", "Location": "Birgunj", "lat": "27.005742"}, {"Name": "Shukraraj Tropical and Infectious Disease Hospital", "percent": "3.39%", "long": "85.3069413", "totaltests": "11092", "Location": "Teku", "lat": "27.6954445"}, {"Name": "Bharatpur Hospital COVID-19 Diagnostic Laboratory", "percent": "3.20%", "long": "84.434377", "totaltests": "10476", "Location": "Chitwan", "lat": "27.6818787"}, {"Name": "Vector Borne Disease Research and Training Centre", "percent": "3.48%", "long": "85.0241767", "totaltests": "11396", "Location": "Hetauda", "lat": "27.4266827"}, {"Name": "Kathmandu University Teaching Hospital", "percent": "2.65%", "long": "85.5479505", "totaltests": "8686", "Location": "Dhulikhel", "lat": "27.6167702"}, {"Name": "Patan Hospital", "percent": "2.28%", "long": "85.3205683", "totaltests": "7478", "Location": "Lalitpur", "lat": "27.668302"}, {"Name": "Bir Hospital", "percent": "2.12%", "long": "85.3136514", "totaltests": "6957", "Location": "Kathmandu", "lat": "27.7048249"}, {"Name": "Tribhuvan University Teaching Hospital", "percent": "2.10%", "long": "85.3302595", "totaltests": "6869", "Location": "TU", "lat": "27.7359917"}, {"Name": "Nepal Police Hospital Laboratory", "percent": "0.08%", "long": "85.3233487", "totaltests": "276", "Location": "Kathmandu", "lat": "27.7311856"}, {"Name": "Star Hospital Laboratory", "percent": "0.18%", "long": "85.3028046", "totaltests": "594", "Location": "Sanepa", "lat": "27.6816372"}, {"Name": "Pokhara Academy of Health Science", "percent": "3.82%", "long": "83.9979662", "totaltests": "12517", "Location": "Pokhara", "lat": "28.2125539"}, {"Name": "Provincial Public Health Laboratory- Pokhara", "percent": "2.61%", "long": "84.0004241", "totaltests": "8561", "Location": "Pokhara", "lat": "28.2123973"}, {"Name": "National Path Lab- Rupandehi ", "percent": "3.52%", "long": "83.4637517", "totaltests": "11522", "Location": "Rupandehi", "lat": "27.6977615"}, {"Name": "Bheri Hospital", "percent": "5.58%", "long": "81.6176275", "totaltests": "18271", "Location": "Banke", "lat": "28.052908"}, {"Name": "Lumbini Provincial Hospital", "percent": "0.19%", "long": "83.4633134", "totaltests": "627", "Location": "Lumbini", "lat": "27.6971129"}, {"Name": "Rapti Academy of Health Sciences", "percent": "4.58%", "long": "82.4861053", "totaltests": "15003", "Location": "Dang", "lat": "28.0587625"}, {"Name": "Surkhet Hospital", "percent": "5.39%", "long": "81.6030746", "totaltests": "17651", "Location": "Surkhet", "lat": "28.5960832"}, {"Name": "Karnali Academy of Health Sciences", "percent": "5.72%", "long": "82.1830896", "totaltests": "18742", "Location": "Jumla", "lat": "29.2829257"}, {"Name": "COVID-19 Testing Laboratory- Dailekh", "extra": true, "percent": "0.49%", "long": "81.3767203", "totaltests": "1593", "Location": "Dailekh", "lat": "28.899069"}, {"Name": "Chaurjahari Municipality PCR Laboratory", "extra": true, "percent": "0.29%", "long": "82.1878144", "totaltests": "959", "Location": "Rukun(East)", "lat": "28.6368786"}, {"Name": "Dadeldhura Hospital Laboratory", "percent": "0.40%", "long": "80.5875312", "totaltests": "1297", "Location": "Dadeldhura", "lat": "29.3048913"}, {"Name": "Seti Zonal Hospital", "percent": "4.66%", "long": "80.57763", "totaltests": "15276", "Location": "Dhangadi", "lat": "28.710972"}]