[{"Name": "National Public Health Laboratory", "Location": "Teku", "lat": "27.695593", "long": "85.3067614", "totaltests": "81611", "percent": "24.91%"}, {"Name": "B.P. Koirala Institute of Health Sciences", "Location": "Dharan", "lat": "26.80956", "long": "87.26759", "totaltests": "12945", "percent": "3.95%"}, {"Name": "Koshi Hospital", "Location": "Biratnagar", "lat": "26.4590497", "long": "87.2851884", "totaltests": "15237", "percent": "4.65%"}, {"Name": "State Public Health Laboratory", "Location": "Biratnagar", "lat": "26.4678475", "long": "87.2766315", "totaltests": "13121", "extra": true, "percent": "4.01%"}, {"Name": "Gajendra Narayan Singh Hospital", "Location": "Saptari", "lat": "26.5359504", "long": "86.7499481", "totaltests": "2997", "percent": "0.91%"}, {"Name": "Janakpur Zonal Hospital", "Location": "Janakpur", "lat": "26.7298786", "long": "85.9115304", "totaltests": "5361", "extra": true, "percent": "1.64%"}, {"Name": "Narayani Hospital", "Location": "Birgunj", "lat": "27.005742", "long": "84.8735593", "totaltests": "10499", "percent": "3.20%"}, {"Name": "Shukraraj Tropical and Infectious Disease Hospital", "Location": "Teku", "lat": "27.6954445", "long": "85.3069413", "totaltests": "11092", "percent": "3.39%"}, {"Name": "Bharatpur Hospital COVID-19 Diagnostic Laboratory", "Location": "Chitwan", "lat": "27.6818787", "long": "84.434377", "totaltests": "10476", "percent": "3.20%"}, {"Name": "Vector Borne Disease Research and Training Centre", "Location": "Hetauda", "lat": "27.4266827", "long": "85.0241767", "totaltests": "11396", "percent": "3.48%"}, {"Name": "Kathmandu University Teaching Hospital", "Location": "Dhulikhel", "lat": "27.6167702", "long": "85.5479505", "totaltests": "8686", "percent": "2.65%"}, {"Name": "Patan Hospital", "Location": "Lalitpur", "lat": "27.668302", "long": "85.3205683", "totaltests": "7478", "percent": "2.28%"}, {"Name": "Bir Hospital", "Location": "Kathmandu", "lat": "27.7048249", "long": "85.3136514", "totaltests": "6957", "percent": "2.12%"}, {"Name": "Tribhuvan University Teaching Hospital", "Location": "TU", "lat": "27.7359917", "long": "85.3302595", "totaltests": "6869", "percent": "2.10%"}, {"Name": "Nepal Police Hospital Laboratory", "Location": "Kathmandu", "lat": "27.7311856", "long": "85.3233487", "totaltests": "276", "percent": "0.08%"}, {"Name": "Star Hospital Laboratory", "Location": "Sanepa", "lat": "27.6816372", "long": "85.3028046", "totaltests": "594", "percent": "0.18%"}, {"Name": "Pokhara Academy of Health Science", "Location": "Pokhara", "lat": "28.2125539", "long": "83.9979662", "totaltests": "12517", "percent": "3.82%"}, {"Name": "Provincial Public Health Laboratory- Pokhara", "Location": "Pokhara", "lat": "28.2123973", "long": "84.0004241", "totaltests": "8561", "percent": "2.61%"}, {"Name": "National Path Lab- Rupandehi ", "Location": "Rupandehi", "lat": "27.6977615", "long": "83.4637517", "totaltests": "11522", "percent": "3.52%"}, {"Name": "Bheri Hospital", "Location": "Banke", "lat": "28.052908", "long": "81.6176275", "totaltests": "18271", "percent": "5.58%"}, {"Name": "Lumbini Provincial Hospital", "Location": "Lumbini", "lat": "27.6971129", "long": "83.4633134", "totaltests": "627", "percent": "0.19%"}, {"Name": "Rapti Academy of Health Sciences", "Location": "Dang", "lat": "28.0587625", "long": "82.4861053", "totaltests": "15003", "percent": "4.58%"}, {"Name": "Surkhet Hospital", "Location": "Surkhet", "lat": "28.5960832", "long": "81.6030746", "totaltests": "17651", "percent": "5.39%"}, {"Name": "Karnali Academy of Health Sciences", "Location": "Jumla", "lat": "29.2829257", "long": "82.1830896", "totaltests": "18742", "percent": "5.72%"}, {"Name": "COVID-19 Testing Laboratory- Dailekh", "Location": "Dailekh", "lat": "28.899069", "long": "81.3767203", "totaltests": "1593", "extra": true, "percent": "0.49%"}, {"Name": "Chaurjahari Municipality PCR Laboratory", "Location": "Rukun(East)", "lat": "28.6368786", "long": "82.1878144", "totaltests": "959", "extra": true, "percent": "0.29%"}, {"Name": "Dadeldhura Hospital Laboratory", "Location": "Dadeldhura", "lat": "29.3048913", "long": "80.5875312", "totaltests": "1297", "percent": "0.40%"}, {"Name": "Seti Zonal Hospital", "Location": "Dhangadi", "lat": "28.710972", "long": "80.57763", "totaltests": "15276", "percent": "4.66%"}]